[  {    "stop_id": "Abington",    "stop_code": 0,    "stop_name": "Abington",    "stop_desc": 0,    "stop_lat": 42.107156,    "stop_lon": -70.934405,    "zone_id": 0,    "stop_url": 0,    "location_type": 0,    "parent_station": 0,    "wheelchair_boarding": 1  },  {    "stop_id": "Anderson/ Woburn",    "stop_code": 0,    "stop_name": "Anderson/ Woburn",    "stop_desc": 0,    "stop_lat": 42.516987,    "stop_lon": -71.144475,    "zone_id": 0,    "stop_url": 0,    "location_type": 0,    "parent_station": 0,    "wheelchair_boarding": 1  },  {    "stop_id": "Andover",    "stop_code": 0,    "stop_name": "Andover",    "stop_desc": 0,    "stop_lat": 42.658336,    "stop_lon": -71.144502,    "zone_id": 0,    "stop_url": 0,    "location_type": 0,    "parent_station": 0,    "wheelchair_boarding": 1  },  {    "stop_id": "Ashland",    "stop_code": 0,    "stop_name": "Ashland",    "stop_desc": 0,    "stop_lat": 42.26149,    "stop_lon": -71.482161,    "zone_id": 0,    "stop_url": 0,    "location_type": 0,    "parent_station": 0,    "wheelchair_boarding": 1  },  {    "stop_id": "Attleboro",    "stop_code": 0,    "stop_name": "Attleboro",    "stop_desc": 0,    "stop_lat": 41.940739,    "stop_lon": -71.285094,    "zone_id": 0,    "stop_url": 0,    "location_type": 0,    "parent_station": 0,    "wheelchair_boarding": 1  },  {    "stop_id": "Auburndale",    "stop_code": 0,    "stop_name": "Auburndale",    "stop_desc": 0,    "stop_lat": 42.345725,    "stop_lon": -71.250826,    "zone_id": 0,    "stop_url": 0,    "location_type": 0,    "parent_station": 0,    "wheelchair_boarding": 2  },  {    "stop_id": "Ayer",    "stop_code": 0,    "stop_name": "Ayer",    "stop_desc": 0,    "stop_lat": 42.559074,    "stop_lon": -71.588476,    "zone_id": 0,    "stop_url": 0,    "location_type": 0,    "parent_station": 0,    "wheelchair_boarding": 2  },  {    "stop_id": "Back Bay",    "stop_code": 0,    "stop_name": "Back Bay",    "stop_desc": 0,    "stop_lat": 42.347487,    "stop_lon": -71.075399,    "zone_id": 0,    "stop_url": 0,    "location_type": 0,    "parent_station": "place-bbsta",    "wheelchair_boarding": 1  },  {    "stop_id": "Ballardvale",    "stop_code": 0,    "stop_name": "Ballardvale",    "stop_desc": 0,    "stop_lat": 42.627356,    "stop_lon": -71.159962,    "zone_id": 0,    "stop_url": 0,    "location_type": 0,    "parent_station": 0,    "wheelchair_boarding": 1  },  {    "stop_id": "Bellevue",    "stop_code": 0,    "stop_name": "Bellevue",    "stop_desc": 0,    "stop_lat": 42.286588,    "stop_lon": -71.145557,    "zone_id": 0,    "stop_url": 0,    "location_type": 0,    "parent_station": 0,    "wheelchair_boarding": 1  },  {    "stop_id": "Belmont",    "stop_code": 0,    "stop_name": "Belmont",    "stop_desc": 0,    "stop_lat": 42.395896,    "stop_lon": -71.17619,    "zone_id": 0,    "stop_url": 0,    "location_type": 0,    "parent_station": 0,    "wheelchair_boarding": 2  },  {    "stop_id": "Beverly",    "stop_code": 0,    "stop_name": "Beverly",    "stop_desc": 0,    "stop_lat": 42.547276,    "stop_lon": -70.885432,    "zone_id": 0,    "stop_url": 0,    "location_type": 0,    "parent_station": 0,    "wheelchair_boarding": 1  },  {    "stop_id": "Beverly Farms",    "stop_code": 0,    "stop_name": "Beverly Farms",    "stop_desc": 0,    "stop_lat": 42.561651,    "stop_lon": -70.811405,    "zone_id": 0,    "stop_url": 0,    "location_type": 0,    "parent_station": 0,    "wheelchair_boarding": 1  },  {    "stop_id": "Bradford",    "stop_code": 0,    "stop_name": "Bradford",    "stop_desc": 0,    "stop_lat": 42.766912,    "stop_lon": -71.088411,    "zone_id": 0,    "stop_url": 0,    "location_type": 0,    "parent_station": 0,    "wheelchair_boarding": 1  },  {    "stop_id": "Braintree",    "stop_code": 0,    "stop_name": "Braintree",    "stop_desc": 0,    "stop_lat": 42.207854,    "stop_lon": -71.001139,    "zone_id": 0,    "stop_url": 0,    "location_type": 0,    "parent_station": "place-brntn",    "wheelchair_boarding": 1  },  {    "stop_id": "Brandeis/ Roberts",    "stop_code": 0,    "stop_name": "Brandeis/ Roberts",    "stop_desc": 0,    "stop_lat": 42.361728,    "stop_lon": -71.260854,    "zone_id": 0,    "stop_url": 0,    "location_type": 0,    "parent_station": 0,    "wheelchair_boarding": 1  },  {    "stop_id": "Bridgewater",    "stop_code": 0,    "stop_name": "Bridgewater",    "stop_desc": 0,    "stop_lat": 41.984916,    "stop_lon": -70.96537,    "zone_id": 0,    "stop_url": 0,    "location_type": 0,    "parent_station": 0,    "wheelchair_boarding": 1  },  {    "stop_id": "Brockton",    "stop_code": 0,    "stop_name": "Brockton",    "stop_desc": 0,    "stop_lat": 42.08572,    "stop_lon": -71.0166,    "zone_id": 0,    "stop_url": 0,    "location_type": 0,    "parent_station": 0,    "wheelchair_boarding": 1  },  {    "stop_id": "Campello",    "stop_code": 0,    "stop_name": "Campello",    "stop_desc": 0,    "stop_lat": 42.060951,    "stop_lon": -71.011004,    "zone_id": 0,    "stop_url": 0,    "location_type": 0,    "parent_station": 0,    "wheelchair_boarding": 1  },  {    "stop_id": "Canton Center",    "stop_code": 0,    "stop_name": "Canton Center",    "stop_desc": 0,    "stop_lat": 42.15677,    "stop_lon": -71.145601,    "zone_id": 0,    "stop_url": 0,    "location_type": 0,    "parent_station": 0,    "wheelchair_boarding": 1  },  {    "stop_id": "Canton Junction",    "stop_code": 0,    "stop_name": "Canton Junction",    "stop_desc": 0,    "stop_lat": 42.163204,    "stop_lon": -71.15376,    "zone_id": 0,    "stop_url": 0,    "location_type": 0,    "parent_station": 0,    "wheelchair_boarding": 1  },  {    "stop_id": "Chelsea",    "stop_code": 0,    "stop_name": "Chelsea",    "stop_desc": 0,    "stop_lat": 42.395689,    "stop_lon": -71.034281,    "zone_id": 0,    "stop_url": 0,    "location_type": 0,    "parent_station": 0,    "wheelchair_boarding": 2  },  {    "stop_id": "Cohasset",    "stop_code": 0,    "stop_name": "Cohasset",    "stop_desc": 0,    "stop_lat": 42.24421,    "stop_lon": -70.837529,    "zone_id": 0,    "stop_url": 0,    "location_type": 0,    "parent_station": 0,    "wheelchair_boarding": 1  },  {    "stop_id": "Concord",    "stop_code": 0,    "stop_name": "Concord",    "stop_desc": 0,    "stop_lat": 42.456565,    "stop_lon": -71.357677,    "zone_id": 0,    "stop_url": 0,    "location_type": 0,    "parent_station": 0,    "wheelchair_boarding": 2  },  {    "stop_id": "Dedham Corp Center",    "stop_code": 0,    "stop_name": "Dedham Corp Center",    "stop_desc": 0,    "stop_lat": 42.225896,    "stop_lon": -71.173806,    "zone_id": 0,    "stop_url": 0,    "location_type": 0,    "parent_station": 0,    "wheelchair_boarding": 1  },  {    "stop_id": "East Weymouth",    "stop_code": 0,    "stop_name": "East Weymouth",    "stop_desc": 0,    "stop_lat": 42.2191,    "stop_lon": -70.9214,    "zone_id": 0,    "stop_url": 0,    "location_type": 0,    "parent_station": 0,    "wheelchair_boarding": 1  },  {    "stop_id": "Endicott",    "stop_code": 0,    "stop_name": "Endicott",    "stop_desc": 0,    "stop_lat": 42.233249,    "stop_lon": -71.158647,    "zone_id": 0,    "stop_url": 0,    "location_type": 0,    "parent_station": 0,    "wheelchair_boarding": 2  },  {    "stop_id": "Fairmount",    "stop_code": 0,    "stop_name": "Fairmount",    "stop_desc": 0,    "stop_lat": 42.253638,    "stop_lon": -71.11927,    "zone_id": 0,    "stop_url": 0,    "location_type": 0,    "parent_station": 0,    "wheelchair_boarding": 1  },  {    "stop_id": "Fitchburg",    "stop_code": 0,    "stop_name": "Fitchburg",    "stop_desc": 0,    "stop_lat": 42.58072,    "stop_lon": -71.792611,    "zone_id": 0,    "stop_url": 0,    "location_type": 0,    "parent_station": 0,    "wheelchair_boarding": 1  },  {    "stop_id": "Forest Hills",    "stop_code": 0,    "stop_name": "Forest Hills",    "stop_desc": 0,    "stop_lat": 42.300635,    "stop_lon": -71.114009,    "zone_id": 0,    "stop_url": 0,    "location_type": 0,    "parent_station": "place-forhl",    "wheelchair_boarding": 1  },  {    "stop_id": "Forge Park / 495",    "stop_code": 0,    "stop_name": "Forge Park / 495",    "stop_desc": 0,    "stop_lat": 42.089941,    "stop_lon": -71.43902,    "zone_id": 0,    "stop_url": 0,    "location_type": 0,    "parent_station": 0,    "wheelchair_boarding": 1  },  {    "stop_id": "Four Corners / Geneva",    "stop_code": 0,    "stop_name": "Four Corners / Geneva",    "stop_desc": 0,    "stop_lat": 42.305037,    "stop_lon": -71.076833,    "zone_id": 0,    "stop_url": 0,    "location_type": 0,    "parent_station": 0,    "wheelchair_boarding": 1  },  {    "stop_id": "Framingham",    "stop_code": 0,    "stop_name": "Framingham",    "stop_desc": 0,    "stop_lat": 42.276719,    "stop_lon": -71.416792,    "zone_id": 0,    "stop_url": 0,    "location_type": 0,    "parent_station": 0,    "wheelchair_boarding": 1  },  {    "stop_id": "Franklin",    "stop_code": 0,    "stop_name": "Franklin",    "stop_desc": 0,    "stop_lat": 42.083238,    "stop_lon": -71.396102,    "zone_id": 0,    "stop_url": 0,    "location_type": 0,    "parent_station": 0,    "wheelchair_boarding": 2  },  {    "stop_id": "Gloucester",    "stop_code": 0,    "stop_name": "Gloucester",    "stop_desc": 0,    "stop_lat": 42.616799,    "stop_lon": -70.668345,    "zone_id": 0,    "stop_url": 0,    "location_type": 0,    "parent_station": 0,    "wheelchair_boarding": 1  },  {    "stop_id": "Grafton",    "stop_code": 0,    "stop_name": "Grafton",    "stop_desc": 0,    "stop_lat": 42.2466,    "stop_lon": -71.685325,    "zone_id": 0,    "stop_url": 0,    "location_type": 0,    "parent_station": 0,    "wheelchair_boarding": 1  },  {    "stop_id": "Greenbush",    "stop_code": 0,    "stop_name": "Greenbush",    "stop_desc": 0,    "stop_lat": 42.178776,    "stop_lon": -70.746641,    "zone_id": 0,    "stop_url": 0,    "location_type": 0,    "parent_station": 0,    "wheelchair_boarding": 1  },  {    "stop_id": "Greenwood",    "stop_code": 0,    "stop_name": "Greenwood",    "stop_desc": 0,    "stop_lat": 42.483005,    "stop_lon": -71.067247,    "zone_id": 0,    "stop_url": 0,    "location_type": 0,    "parent_station": 0,    "wheelchair_boarding": 2  },  {    "stop_id": "Halifax",    "stop_code": 0,    "stop_name": "Halifax",    "stop_desc": 0,    "stop_lat": 42.014739,    "stop_lon": -70.824263,    "zone_id": 0,    "stop_url": 0,    "location_type": 0,    "parent_station": 0,    "wheelchair_boarding": 1  },  {    "stop_id": "Hamilton/ Wenham",    "stop_code": 0,    "stop_name": "Hamilton/ Wenham",    "stop_desc": 0,    "stop_lat": 42.609212,    "stop_lon": -70.874801,    "zone_id": 0,    "stop_url": 0,    "location_type": 0,    "parent_station": 0,    "wheelchair_boarding": 1  },  {    "stop_id": "Hanson",    "stop_code": 0,    "stop_name": "Hanson",    "stop_desc": 0,    "stop_lat": 42.043967,    "stop_lon": -70.882438,    "zone_id": 0,    "stop_url": 0,    "location_type": 0,    "parent_station": 0,    "wheelchair_boarding": 1  },  {    "stop_id": "Hastings",    "stop_code": 0,    "stop_name": "Hastings",    "stop_desc": 0,    "stop_lat": 42.385755,    "stop_lon": -71.289203,    "zone_id": 0,    "stop_url": 0,    "location_type": 0,    "parent_station": 0,    "wheelchair_boarding": 2  },  {    "stop_id": "Haverhill",    "stop_code": 0,    "stop_name": "Haverhill",    "stop_desc": 0,    "stop_lat": 42.773474,    "stop_lon": -71.086237,    "zone_id": 0,    "stop_url": 0,    "location_type": 0,    "parent_station": 0,    "wheelchair_boarding": 1  },  {    "stop_id": "Hersey",    "stop_code": 0,    "stop_name": "Hersey",    "stop_desc": 0,    "stop_lat": 42.275648,    "stop_lon": -71.215528,    "zone_id": 0,    "stop_url": 0,    "location_type": 0,    "parent_station": 0,    "wheelchair_boarding": 1  },  {    "stop_id": "Highland",    "stop_code": 0,    "stop_name": "Highland",    "stop_desc": 0,    "stop_lat": 42.284969,    "stop_lon": -71.153937,    "zone_id": 0,    "stop_url": 0,    "location_type": 0,    "parent_station": 0,    "wheelchair_boarding": 1  },  {    "stop_id": "Holbrook/ Randolph",    "stop_code": 0,    "stop_name": "Holbrook/ Randolph",    "stop_desc": 0,    "stop_lat": 42.156343,    "stop_lon": -71.027371,    "zone_id": 0,    "stop_url": 0,    "location_type": 0,    "parent_station": 0,    "wheelchair_boarding": 1  },  {    "stop_id": "Hyde Park",    "stop_code": 0,    "stop_name": "Hyde Park",    "stop_desc": 0,    "stop_lat": 42.25503,    "stop_lon": -71.125526,    "zone_id": 0,    "stop_url": 0,    "location_type": 0,    "parent_station": 0,    "wheelchair_boarding": 1  },  {    "stop_id": "Ipswich",    "stop_code": 0,    "stop_name": "Ipswich",    "stop_desc": 0,    "stop_lat": 42.676921,    "stop_lon": -70.840589,    "zone_id": 0,    "stop_url": 0,    "location_type": 0,    "parent_station": 0,    "wheelchair_boarding": 1  },  {    "stop_id": "Islington",    "stop_code": 0,    "stop_name": "Islington",    "stop_desc": 0,    "stop_lat": 42.22105,    "stop_lon": -71.183961,    "zone_id": 0,    "stop_url": 0,    "location_type": 0,    "parent_station": 0,    "wheelchair_boarding": 2  },  {    "stop_id": "JFK/UMASS",    "stop_code": 0,    "stop_name": "JFK/UMASS",    "stop_desc": 0,    "stop_lat": 42.321123,    "stop_lon": -71.052555,    "zone_id": 0,    "stop_url": 0,    "location_type": 0,    "parent_station": "place-jfk",    "wheelchair_boarding": 1  },  {    "stop_id": "Kendal Green",    "stop_code": 0,    "stop_name": "Kendal Green",    "stop_desc": 0,    "stop_lat": 42.37897,    "stop_lon": -71.282411,    "zone_id": 0,    "stop_url": 0,    "location_type": 0,    "parent_station": 0,    "wheelchair_boarding": 2  },  {    "stop_id": "Kingston",    "stop_code": 0,    "stop_name": "Kingston",    "stop_desc": 0,    "stop_lat": 41.97762,    "stop_lon": -70.721709,    "zone_id": 0,    "stop_url": 0,    "location_type": 0,    "parent_station": 0,    "wheelchair_boarding": 1  },  {    "stop_id": "Lawrence",    "stop_code": 0,    "stop_name": "Lawrence",    "stop_desc": 0,    "stop_lat": 42.701806,    "stop_lon": -71.15198,    "zone_id": 0,    "stop_url": 0,    "location_type": 0,    "parent_station": 0,    "wheelchair_boarding": 1  },  {    "stop_id": "Lincoln",    "stop_code": 0,    "stop_name": "Lincoln",    "stop_desc": 0,    "stop_lat": 42.414229,    "stop_lon": -71.325344,    "zone_id": 0,    "stop_url": 0,    "location_type": 0,    "parent_station": 0,    "wheelchair_boarding": 2  },  {    "stop_id": "Littleton / Rte 495",    "stop_code": 0,    "stop_name": "Littleton / Rte 495",    "stop_desc": 0,    "stop_lat": 42.519236,    "stop_lon": -71.502643,    "zone_id": 0,    "stop_url": 0,    "location_type": 0,    "parent_station": 0,    "wheelchair_boarding": 1  },  {    "stop_id": "Lowell",    "stop_code": 0,    "stop_name": "Lowell",    "stop_desc": 0,    "stop_lat": 42.63535,    "stop_lon": -71.314543,    "zone_id": 0,    "stop_url": 0,    "location_type": 0,    "parent_station": 0,    "wheelchair_boarding": 1  },  {    "stop_id": "Lynn",    "stop_code": 0,    "stop_name": "Lynn",    "stop_desc": 0,    "stop_lat": 42.462953,    "stop_lon": -70.945421,    "zone_id": 0,    "stop_url": 0,    "location_type": 0,    "parent_station": 0,    "wheelchair_boarding": 1  },  {    "stop_id": "Malden Center",    "stop_code": 0,    "stop_name": "Malden Center",    "stop_desc": 0,    "stop_lat": 42.426407,    "stop_lon": -71.074227,    "zone_id": 0,    "stop_url": 0,    "location_type": 0,    "parent_station": "place-mlmnl",    "wheelchair_boarding": 1  },  {    "stop_id": "Manchester",    "stop_code": 0,    "stop_name": "Manchester",    "stop_desc": 0,    "stop_lat": 42.573687,    "stop_lon": -70.77009,    "zone_id": 0,    "stop_url": 0,    "location_type": 0,    "parent_station": 0,    "wheelchair_boarding": 1  },  {    "stop_id": "Mansfield",    "stop_code": 0,    "stop_name": "Mansfield",    "stop_desc": 0,    "stop_lat": 42.032787,    "stop_lon": -71.219917,    "zone_id": 0,    "stop_url": 0,    "location_type": 0,    "parent_station": 0,    "wheelchair_boarding": 1  },  {    "stop_id": "Melrose Cedar Park",    "stop_code": 0,    "stop_name": "Melrose Cedar Park",    "stop_desc": 0,    "stop_lat": 42.458768,    "stop_lon": -71.069789,    "zone_id": 0,    "stop_url": 0,    "location_type": 0,    "parent_station": 0,    "wheelchair_boarding": 2  },  {    "stop_id": "Melrose Highlands",    "stop_code": 0,    "stop_name": "Melrose Highlands",    "stop_desc": 0,    "stop_lat": 42.469464,    "stop_lon": -71.068297,    "zone_id": 0,    "stop_url": 0,    "location_type": 0,    "parent_station": 0,    "wheelchair_boarding": 1  },  {    "stop_id": "Middleborough/ Lakeville",    "stop_code": 0,    "stop_name": "Middleborough/ Lakeville",    "stop_desc": 0,    "stop_lat": 41.87821,    "stop_lon": -70.918444,    "zone_id": 0,    "stop_url": 0,    "location_type": 0,    "parent_station": 0,    "wheelchair_boarding": 1  },  {    "stop_id": "Mishawum",    "stop_code": 0,    "stop_name": "Mishawum",    "stop_desc": 0,    "stop_lat": 42.504402,    "stop_lon": -71.137618,    "zone_id": 0,    "stop_url": 0,    "location_type": 0,    "parent_station": 0,    "wheelchair_boarding": 2  },  {    "stop_id": "Montello",    "stop_code": 0,    "stop_name": "Montello",    "stop_desc": 0,    "stop_lat": 42.106555,    "stop_lon": -71.022001,    "zone_id": 0,    "stop_url": 0,    "location_type": 0,    "parent_station": 0,    "wheelchair_boarding": 1  },  {    "stop_id": "Montserrat",    "stop_code": 0,    "stop_name": "Montserrat",    "stop_desc": 0,    "stop_lat": 42.562171,    "stop_lon": -70.869254,    "zone_id": 0,    "stop_url": 0,    "location_type": 0,    "parent_station": 0,    "wheelchair_boarding": 1  },  {    "stop_id": "Morton Street",    "stop_code": 0,    "stop_name": "Morton Street",    "stop_desc": 0,    "stop_lat": 42.280994,    "stop_lon": -71.085475,    "zone_id": 0,    "stop_url": 0,    "location_type": 0,    "parent_station": 0,    "wheelchair_boarding": 1  },  {    "stop_id": "Nantasket Junction",    "stop_code": 0,    "stop_name": "Nantasket Junction",    "stop_desc": 0,    "stop_lat": 42.244959,    "stop_lon": -70.869205,    "zone_id": 0,    "stop_url": 0,    "location_type": 0,    "parent_station": 0,    "wheelchair_boarding": 1  },  {    "stop_id": "Natick Center",    "stop_code": 0,    "stop_name": "Natick Center",    "stop_desc": 0,    "stop_lat": 42.285719,    "stop_lon": -71.347133,    "zone_id": 0,    "stop_url": 0,    "location_type": 0,    "parent_station": 0,    "wheelchair_boarding": 2  },  {    "stop_id": "Needham Center",    "stop_code": 0,    "stop_name": "Needham Center",    "stop_desc": 0,    "stop_lat": 42.280775,    "stop_lon": -71.237686,    "zone_id": 0,    "stop_url": 0,    "location_type": 0,    "parent_station": 0,    "wheelchair_boarding": 1  },  {    "stop_id": "Needham Heights",    "stop_code": 0,    "stop_name": "Needham Heights",    "stop_desc": 0,    "stop_lat": 42.293444,    "stop_lon": -71.236027,    "zone_id": 0,    "stop_url": 0,    "location_type": 0,    "parent_station": 0,    "wheelchair_boarding": 1  },  {    "stop_id": "Needham Junction",    "stop_code": 0,    "stop_name": "Needham Junction",    "stop_desc": 0,    "stop_lat": 42.273187,    "stop_lon": -71.235559,    "zone_id": 0,    "stop_url": 0,    "location_type": 0,    "parent_station": 0,    "wheelchair_boarding": 1  },  {    "stop_id": "Newburyport",    "stop_code": 0,    "stop_name": "Newburyport",    "stop_desc": 0,    "stop_lat": 42.797837,    "stop_lon": -70.87797,    "zone_id": 0,    "stop_url": 0,    "location_type": 0,    "parent_station": 0,    "wheelchair_boarding": 1  },  {    "stop_id": "Newmarket",    "stop_code": 0,    "stop_name": "Newmarket",    "stop_desc": 0,    "stop_lat": 42.326701,    "stop_lon": -71.066314,    "zone_id": 0,    "stop_url": 0,    "location_type": 0,    "parent_station": 0,    "wheelchair_boarding": 1  },  {    "stop_id": "Newtonville",    "stop_code": 0,    "stop_name": "Newtonville",    "stop_desc": 0,    "stop_lat": 42.351603,    "stop_lon": -71.207338,    "zone_id": 0,    "stop_url": 0,    "location_type": 0,    "parent_station": 0,    "wheelchair_boarding": 2  },  {    "stop_id": "Norfolk",    "stop_code": 0,    "stop_name": "Norfolk",    "stop_desc": 0,    "stop_lat": 42.120694,    "stop_lon": -71.325217,    "zone_id": 0,    "stop_url": 0,    "location_type": 0,    "parent_station": 0,    "wheelchair_boarding": 1  },  {    "stop_id": "North Beverly",    "stop_code": 0,    "stop_name": "North Beverly",    "stop_desc": 0,    "stop_lat": 42.583779,    "stop_lon": -70.883851,    "zone_id": 0,    "stop_url": 0,    "location_type": 0,    "parent_station": 0,    "wheelchair_boarding": 1  },  {    "stop_id": "North Billerica",    "stop_code": 0,    "stop_name": "North Billerica",    "stop_desc": 0,    "stop_lat": 42.593248,    "stop_lon": -71.280995,    "zone_id": 0,    "stop_url": 0,    "location_type": 0,    "parent_station": 0,    "wheelchair_boarding": 1  },  {    "stop_id": "North Leominster",    "stop_code": 0,    "stop_name": "North Leominster",    "stop_desc": 0,    "stop_lat": 42.539017,    "stop_lon": -71.739186,    "zone_id": 0,    "stop_url": 0,    "location_type": 0,    "parent_station": 0,    "wheelchair_boarding": 1  },  {    "stop_id": "North Scituate",    "stop_code": 0,    "stop_name": "North Scituate",    "stop_desc": 0,    "stop_lat": 42.219528,    "stop_lon": -70.788602,    "zone_id": 0,    "stop_url": 0,    "location_type": 0,    "parent_station": 0,    "wheelchair_boarding": 1  },  {    "stop_id": "North Station",    "stop_code": 0,    "stop_name": "North Station",    "stop_desc": 0,    "stop_lat": 42.365551,    "stop_lon": -71.061251,    "zone_id": 0,    "stop_url": 0,    "location_type": 0,    "parent_station": "place-north",    "wheelchair_boarding": 1  },  {    "stop_id": "North Wilmington",    "stop_code": 0,    "stop_name": "North Wilmington",    "stop_desc": 0,    "stop_lat": 42.569661,    "stop_lon": -71.159696,    "zone_id": 0,    "stop_url": 0,    "location_type": 0,    "parent_station": 0,    "wheelchair_boarding": 2  },  {    "stop_id": "Norwood Central",    "stop_code": 0,    "stop_name": "Norwood Central",    "stop_desc": 0,    "stop_lat": 42.188775,    "stop_lon": -71.199665,    "zone_id": 0,    "stop_url": 0,    "location_type": 0,    "parent_station": 0,    "wheelchair_boarding": 1  },  {    "stop_id": "Norwood Depot",    "stop_code": 0,    "stop_name": "Norwood Depot",    "stop_desc": 0,    "stop_lat": 42.196857,    "stop_lon": -71.196688,    "zone_id": 0,    "stop_url": 0,    "location_type": 0,    "parent_station": 0,    "wheelchair_boarding": 1  },  {    "stop_id": "Plimptonville",    "stop_code": 0,    "stop_name": "Plimptonville",    "stop_desc": 0,    "stop_lat": 42.159123,    "stop_lon": -71.236125,    "zone_id": 0,    "stop_url": 0,    "location_type": 0,    "parent_station": 0,    "wheelchair_boarding": 2  },  {    "stop_id": "Plymouth",    "stop_code": 0,    "stop_name": "Plymouth",    "stop_desc": 0,    "stop_lat": 41.981278,    "stop_lon": -70.690421,    "zone_id": 0,    "stop_url": 0,    "location_type": 0,    "parent_station": 0,    "wheelchair_boarding": 1  },  {    "stop_id": "Porter Square",    "stop_code": 0,    "stop_name": "Porter Square",    "stop_desc": 0,    "stop_lat": 42.388353,    "stop_lon": -71.119159,    "zone_id": 0,    "stop_url": 0,    "location_type": 0,    "parent_station": "place-portr",    "wheelchair_boarding": 1  },  {    "stop_id": "Prides Crossing",    "stop_code": 0,    "stop_name": "Prides Crossing",    "stop_desc": 0,    "stop_lat": 42.559446,    "stop_lon": -70.825541,    "zone_id": 0,    "stop_url": 0,    "location_type": 0,    "parent_station": 0,    "wheelchair_boarding": 2  },  {    "stop_id": "Providence",    "stop_code": 0,    "stop_name": "Providence",    "stop_desc": 0,    "stop_lat": 41.829293,    "stop_lon": -71.413301,    "zone_id": 0,    "stop_url": 0,    "location_type": 0,    "parent_station": 0,    "wheelchair_boarding": 1  },  {    "stop_id": "Quincy Center",    "stop_code": 0,    "stop_name": "Quincy Center",    "stop_desc": 0,    "stop_lat": 42.251809,    "stop_lon": -71.005409,    "zone_id": 0,    "stop_url": 0,    "location_type": 0,    "parent_station": "place-qnctr",    "wheelchair_boarding": 1  },  {    "stop_id": "Reading",    "stop_code": 0,    "stop_name": "Reading",    "stop_desc": 0,    "stop_lat": 42.52148,    "stop_lon": -71.10744,    "zone_id": 0,    "stop_url": 0,    "location_type": 0,    "parent_station": 0,    "wheelchair_boarding": 1  },  {    "stop_id": "Readville",    "stop_code": 0,    "stop_name": "Readville",    "stop_desc": 0,    "stop_lat": 42.238405,    "stop_lon": -71.133246,    "zone_id": 0,    "stop_url": 0,    "location_type": 0,    "parent_station": 0,    "wheelchair_boarding": 1  },  {    "stop_id": "River Works / GE Employees Only",    "stop_code": 0,    "stop_name": "River Works / GE Employees Only",    "stop_desc": 0,    "stop_lat": 42.449927,    "stop_lon": -70.969848,    "zone_id": 0,    "stop_url": 0,    "location_type": 0,    "parent_station": 0,    "wheelchair_boarding": 2  },  {    "stop_id": "Rockport",    "stop_code": 0,    "stop_name": "Rockport",    "stop_desc": 0,    "stop_lat": 42.655491,    "stop_lon": -70.627055,    "zone_id": 0,    "stop_url": 0,    "location_type": 0,    "parent_station": 0,    "wheelchair_boarding": 1  },  {    "stop_id": "Roslindale Village",    "stop_code": 0,    "stop_name": "Roslindale Village",    "stop_desc": 0,    "stop_lat": 42.287442,    "stop_lon": -71.130283,    "zone_id": 0,    "stop_url": 0,    "location_type": 0,    "parent_station": 0,    "wheelchair_boarding": 1  },  {    "stop_id": "Route 128",    "stop_code": 0,    "stop_name": "Route 128",    "stop_desc": 0,    "stop_lat": 42.209884,    "stop_lon": -71.1471,    "zone_id": 0,    "stop_url": 0,    "location_type": 0,    "parent_station": 0,    "wheelchair_boarding": 1  },  {    "stop_id": "Rowley",    "stop_code": 0,    "stop_name": "Rowley",    "stop_desc": 0,    "stop_lat": 42.726845,    "stop_lon": -70.859034,    "zone_id": 0,    "stop_url": 0,    "location_type": 0,    "parent_station": 0,    "wheelchair_boarding": 1  },  {    "stop_id": "Ruggles",    "stop_code": 0,    "stop_name": "Ruggles",    "stop_desc": 0,    "stop_lat": 42.336505,    "stop_lon": -71.089189,    "zone_id": 0,    "stop_url": 0,    "location_type": 0,    "parent_station": "place-rugg",    "wheelchair_boarding": 1  },  {    "stop_id": "Salem",    "stop_code": 0,    "stop_name": "Salem",    "stop_desc": 0,    "stop_lat": 42.524792,    "stop_lon": -70.895876,    "zone_id": 0,    "stop_url": 0,    "location_type": 0,    "parent_station": 0,    "wheelchair_boarding": 1  },  {    "stop_id": "Sharon",    "stop_code": 0,    "stop_name": "Sharon",    "stop_desc": 0,    "stop_lat": 42.124553,    "stop_lon": -71.184468,    "zone_id": 0,    "stop_url": 0,    "location_type": 0,    "parent_station": 0,    "wheelchair_boarding": 1  },  {    "stop_id": "Shirley",    "stop_code": 0,    "stop_name": "Shirley",    "stop_desc": 0,    "stop_lat": 42.545089,    "stop_lon": -71.648004,    "zone_id": 0,    "stop_url": 0,    "location_type": 0,    "parent_station": 0,    "wheelchair_boarding": 2  },  {    "stop_id": "Silver Hill",    "stop_code": 0,    "stop_name": "Silver Hill",    "stop_desc": 0,    "stop_lat": 42.395625,    "stop_lon": -71.302357,    "zone_id": 0,    "stop_url": 0,    "location_type": 0,    "parent_station": 0,    "wheelchair_boarding": 2  },  {    "stop_id": "South Acton",    "stop_code": 0,    "stop_name": "South Acton",    "stop_desc": 0,    "stop_lat": 42.460574,    "stop_lon": -71.457804,    "zone_id": 0,    "stop_url": 0,    "location_type": 0,    "parent_station": 0,    "wheelchair_boarding": 2  },  {    "stop_id": "South Attleboro",    "stop_code": 0,    "stop_name": "South Attleboro",    "stop_desc": 0,    "stop_lat": 41.897943,    "stop_lon": -71.354621,    "zone_id": 0,    "stop_url": 0,    "location_type": 0,    "parent_station": 0,    "wheelchair_boarding": 1  },  {    "stop_id": "South Station",    "stop_code": 0,    "stop_name": "South Station",    "stop_desc": 0,    "stop_lat": 42.352614,    "stop_lon": -71.055364,    "zone_id": 0,    "stop_url": 0,    "location_type": 0,    "parent_station": "place-sstat",    "wheelchair_boarding": 1  },  {    "stop_id": "South Weymouth",    "stop_code": 0,    "stop_name": "South Weymouth",    "stop_desc": 0,    "stop_lat": 42.155025,    "stop_lon": -70.953302,    "zone_id": 0,    "stop_url": 0,    "location_type": 0,    "parent_station": 0,    "wheelchair_boarding": 1  },  {    "stop_id": "Southborough",    "stop_code": 0,    "stop_name": "Southborough",    "stop_desc": 0,    "stop_lat": 42.267024,    "stop_lon": -71.524371,    "zone_id": 0,    "stop_url": 0,    "location_type": 0,    "parent_station": 0,    "wheelchair_boarding": 1  },  {    "stop_id": "Stoughton",    "stop_code": 0,    "stop_name": "Stoughton",    "stop_desc": 0,    "stop_lat": 42.124084,    "stop_lon": -71.103627,    "zone_id": 0,    "stop_url": 0,    "location_type": 0,    "parent_station": 0,    "wheelchair_boarding": 1  },  {    "stop_id": "Swampscott",    "stop_code": 0,    "stop_name": "Swampscott",    "stop_desc": 0,    "stop_lat": 42.473743,    "stop_lon": -70.922537,    "zone_id": 0,    "stop_url": 0,    "location_type": 0,    "parent_station": 0,    "wheelchair_boarding": 1  },  {    "stop_id": "Talbot Avenue",    "stop_code": 0,    "stop_name": "Talbot Avenue",    "stop_desc": 0,    "stop_lat": 42.292246,    "stop_lon": -71.07814,    "zone_id": 0,    "stop_url": 0,    "location_type": 0,    "parent_station": 0,    "wheelchair_boarding": 1  },  {    "stop_id": "Uphams Corner",    "stop_code": 0,    "stop_name": "Uphams Corner",    "stop_desc": 0,    "stop_lat": 42.31867,    "stop_lon": -71.069072,    "zone_id": 0,    "stop_url": 0,    "location_type": 0,    "parent_station": 0,    "wheelchair_boarding": 1  },  {    "stop_id": "Wakefield",    "stop_code": 0,    "stop_name": "Wakefield",    "stop_desc": 0,    "stop_lat": 42.502126,    "stop_lon": -71.075566,    "zone_id": 0,    "stop_url": 0,    "location_type": 0,    "parent_station": 0,    "wheelchair_boarding": 2  },  {    "stop_id": "Walpole",    "stop_code": 0,    "stop_name": "Walpole",    "stop_desc": 0,    "stop_lat": 42.145477,    "stop_lon": -71.25779,    "zone_id": 0,    "stop_url": 0,    "location_type": 0,    "parent_station": 0,    "wheelchair_boarding": 2  },  {    "stop_id": "Waltham",    "stop_code": 0,    "stop_name": "Waltham",    "stop_desc": 0,    "stop_lat": 42.374269,    "stop_lon": -71.235598,    "zone_id": 0,    "stop_url": 0,    "location_type": 0,    "parent_station": 0,    "wheelchair_boarding": 1  },  {    "stop_id": "Waverley",    "stop_code": 0,    "stop_name": "Waverley",    "stop_desc": 0,    "stop_lat": 42.3876,    "stop_lon": -71.190744,    "zone_id": 0,    "stop_url": 0,    "location_type": 0,    "parent_station": 0,    "wheelchair_boarding": 2  },  {    "stop_id": "Wedgemere",    "stop_code": 0,    "stop_name": "Wedgemere",    "stop_desc": 0,    "stop_lat": 42.444948,    "stop_lon": -71.140169,    "zone_id": 0,    "stop_url": 0,    "location_type": 0,    "parent_station": 0,    "wheelchair_boarding": 1  },  {    "stop_id": "Wellesley Farms",    "stop_code": 0,    "stop_name": "Wellesley Farms",    "stop_desc": 0,    "stop_lat": 42.323608,    "stop_lon": -71.272288,    "zone_id": 0,    "stop_url": 0,    "location_type": 0,    "parent_station": 0,    "wheelchair_boarding": 2  },  {    "stop_id": "Wellesley Hills",    "stop_code": 0,    "stop_name": "Wellesley Hills",    "stop_desc": 0,    "stop_lat": 42.31037,    "stop_lon": -71.277044,    "zone_id": 0,    "stop_url": 0,    "location_type": 0,    "parent_station": 0,    "wheelchair_boarding": 2  },  {    "stop_id": "Wellesley Square",    "stop_code": 0,    "stop_name": "Wellesley Square",    "stop_desc": 0,    "stop_lat": 42.297526,    "stop_lon": -71.294173,    "zone_id": 0,    "stop_url": 0,    "location_type": 0,    "parent_station": 0,    "wheelchair_boarding": 2  },  {    "stop_id": "West Concord",    "stop_code": 0,    "stop_name": "West Concord",    "stop_desc": 0,    "stop_lat": 42.457043,    "stop_lon": -71.392892,    "zone_id": 0,    "stop_url": 0,    "location_type": 0,    "parent_station": 0,    "wheelchair_boarding": 1  },  {    "stop_id": "West Gloucester",    "stop_code": 0,    "stop_name": "West Gloucester",    "stop_desc": 0,    "stop_lat": 42.611933,    "stop_lon": -70.705417,    "zone_id": 0,    "stop_url": 0,    "location_type": 0,    "parent_station": 0,    "wheelchair_boarding": 1  },  {    "stop_id": "West Hingham",    "stop_code": 0,    "stop_name": "West Hingham",    "stop_desc": 0,    "stop_lat": 42.235838,    "stop_lon": -70.902708,    "zone_id": 0,    "stop_url": 0,    "location_type": 0,    "parent_station": 0,    "wheelchair_boarding": 1  },  {    "stop_id": "West Medford",    "stop_code": 0,    "stop_name": "West Medford",    "stop_desc": 0,    "stop_lat": 42.421184,    "stop_lon": -71.132468,    "zone_id": 0,    "stop_url": 0,    "location_type": 0,    "parent_station": 0,    "wheelchair_boarding": 2  },  {    "stop_id": "West Natick",    "stop_code": 0,    "stop_name": "West Natick",    "stop_desc": 0,    "stop_lat": 42.283064,    "stop_lon": -71.391797,    "zone_id": 0,    "stop_url": 0,    "location_type": 0,    "parent_station": 0,    "wheelchair_boarding": 1  },  {    "stop_id": "West Newton",    "stop_code": 0,    "stop_name": "West Newton",    "stop_desc": 0,    "stop_lat": 42.347878,    "stop_lon": -71.230528,    "zone_id": 0,    "stop_url": 0,    "location_type": 0,    "parent_station": 0,    "wheelchair_boarding": 2  },  {    "stop_id": "West Roxbury",    "stop_code": 0,    "stop_name": "West Roxbury",    "stop_desc": 0,    "stop_lat": 42.281358,    "stop_lon": -71.160065,    "zone_id": 0,    "stop_url": 0,    "location_type": 0,    "parent_station": 0,    "wheelchair_boarding": 1  },  {    "stop_id": "Westborough",    "stop_code": 0,    "stop_name": "Westborough",    "stop_desc": 0,    "stop_lat": 42.269644,    "stop_lon": -71.647076,    "zone_id": 0,    "stop_url": 0,    "location_type": 0,    "parent_station": 0,    "wheelchair_boarding": 1  },  {    "stop_id": "Weymouth Landing/ East Braintree",    "stop_code": 0,    "stop_name": "Weymouth Landing/ East Braintree",    "stop_desc": 0,    "stop_lat": 42.221503,    "stop_lon": -70.968152,    "zone_id": 0,    "stop_url": 0,    "location_type": 0,    "parent_station": 0,    "wheelchair_boarding": 1  },  {    "stop_id": "Whitman",    "stop_code": 0,    "stop_name": "Whitman",    "stop_desc": 0,    "stop_lat": 42.082749,    "stop_lon": -70.923411,    "zone_id": 0,    "stop_url": 0,    "location_type": 0,    "parent_station": 0,    "wheelchair_boarding": 1  },  {    "stop_id": "Wickford Junction",    "stop_code": 0,    "stop_name": "Wickford Junction",    "stop_desc": 0,    "stop_lat": 41.581289,    "stop_lon": -71.491147,    "zone_id": 0,    "stop_url": 0,    "location_type": 0,    "parent_station": 0,    "wheelchair_boarding": 1  },  {    "stop_id": "Wilmington",    "stop_code": 0,    "stop_name": "Wilmington",    "stop_desc": 0,    "stop_lat": 42.546624,    "stop_lon": -71.174334,    "zone_id": 0,    "stop_url": 0,    "location_type": 0,    "parent_station": 0,    "wheelchair_boarding": 1  },  {    "stop_id": "Winchester Center",    "stop_code": 0,    "stop_name": "Winchester Center",    "stop_desc": 0,    "stop_lat": 42.451088,    "stop_lon": -71.13783,    "zone_id": 0,    "stop_url": 0,    "location_type": 0,    "parent_station": 0,    "wheelchair_boarding": 2  },  {    "stop_id": "Windsor Gardens",    "stop_code": 0,    "stop_name": "Windsor Gardens",    "stop_desc": 0,    "stop_lat": 42.172127,    "stop_lon": -71.219366,    "zone_id": 0,    "stop_url": 0,    "location_type": 0,    "parent_station": 0,    "wheelchair_boarding": 2  },  {    "stop_id": "Worcester",    "stop_code": 0,    "stop_name": "Worcester",    "stop_desc": 0,    "stop_lat": 42.261461,    "stop_lon": -71.794888,    "zone_id": 0,    "stop_url": 0,    "location_type": 0,    "parent_station": 0,    "wheelchair_boarding": 1  },  {    "stop_id": "Wyoming Hill",    "stop_code": 0,    "stop_name": "Wyoming Hill",    "stop_desc": 0,    "stop_lat": 42.451731,    "stop_lon": -71.069379,    "zone_id": 0,    "stop_url": 0,    "location_type": 0,    "parent_station": 0,    "wheelchair_boarding": 2  },  {    "stop_id": "Yawkey",    "stop_code": 0,    "stop_name": "Yawkey",    "stop_desc": 0,    "stop_lat": 42.347581,    "stop_lon": -71.099974,    "zone_id": 0,    "stop_url": 0,    "location_type": 0,    "parent_station": 0,    "wheelchair_boarding": 1  }]